codigo_iata,nombre,lat,lng
SCL,Santiago,-33.393,-70.786
GRU,Sao Paulo,-23.435,-46.473
BOG,Bogota,4.702,-74.148
LIM,Lima,-12.022,-77.115
JFK,New York,40.639,-73.778
MAD,Madrid,40.472,-3.568
CDG,Paris,49.009,2.55
FCO,Roma,41.8,12.25
ORY,Paris Orly,48.725,2.386
MIA,Miami,25.795,-80.287
